# message_name [message contents] ipc_timestamp ipc_hostname logger_timestamp
# message formats defined: PARAM SYNC ODOM FLASER RLASER TRUEPOS 
# PARAM param_name param_value
# SYNC tagname
# ODOM x y theta tv rv accel
# FLASER num_readings [range_readings] x y theta odom_x odom_y odom_theta
# RLASER num_readings [range_readings] x y theta odom_x odom_y odom_theta
# TRUEPOS true_x true_y true_theta odom_x odom_y odom_theta
# NMEA-GGA utc latitude lat_orient longitude long_orient gps_quality num_sattelites hdop sea_level alitude geo_sea_level geo_sep data_age
PARAM robot_use_laser on nohost 0
PARAM simulator_num_readings 180 nohost 0

PARAM robot_frontlaser_offset 0.0 nohost 0
PARAM robot_rearlaser_offset 0.0 nohost 0
ODOM -0.000602 0.012727 -1.570796 0.000000 0.000000 0.000000 70.179699 nohost 0.000000
FLASER 180 46.56 47.31 12.51 14.71 12.16 12.26 12.21 11.76 10.56 9.46 8.66 7.91 7.31 6.81 6.31 5.96 5.66 5.26 5.06 4.86 4.61 4.41 4.16 4.06 3.86 3.76 3.66 3.51 3.36 3.26 3.21 3.06 3.01 2.96 2.81 2.76 2.74 2.64 2.59 2.59 2.49 2.44 2.39 2.39 2.29 2.29 2.24 2.19 2.19 2.14 2.09 2.09 2.04 2.04 1.99 1.94 1.94 1.94 1.92 1.85 1.92 1.99 2.04 2.14 2.16 2.26 2.36 2.46 2.56 2.66 2.81 2.96 3.16 3.36 3.56 3.76 4.06 4.41 4.81 5.21 5.76 6.26 7.16 8.36 9.91 12.16 18.76 21.76 24.61 30.31 30.31 30.31 16.41 12.71 10.11 8.96 7.36 6.41 5.66 5.16 4.66 4.36 4.41 4.71 4.76 4.76 4.76 2.86 2.71 2.56 2.46 2.36 2.26 2.16 2.06 1.96 1.89 1.84 1.84 1.84 1.89 1.89 1.94 1.94 1.99 2.04 2.04 2.04 2.09 2.14 2.14 2.19 2.24 2.29 2.29 2.34 2.39 2.41 2.51 2.46 2.31 2.31 2.36 2.36 2.41 2.41 2.51 2.61 3.16 3.26 6.91 4.61 50.00 50.00 6.16 6.11 6.06 6.01 6.01 5.91 6.01 5.86 5.81 5.81 5.76 5.76 5.71 5.76 5.61 3.31 5.56 5.51 5.56 5.56 5.56 3.01 6.46 6.36 4.46 6.36 -0.000602 0.012727 -1.570796 -0.000602 0.012727 -1.570796 70.289900 nohost 0.110201
ODOM -0.000602 0.012727 -1.570796 0.000000 0.000000 0.000000 70.309700 nohost 0.130001
FLASER 180 46.51 47.26 12.56 14.76 12.16 12.26 12.21 11.76 10.51 9.46 8.61 7.91 7.26 6.81 6.31 6.01 5.66 5.31 5.06 4.81 4.61 4.36 4.21 4.01 3.86 3.76 3.61 3.51 3.36 3.31 3.16 3.11 3.01 2.91 2.86 2.76 2.74 2.69 2.59 2.54 2.49 2.44 2.39 2.34 2.29 2.29 2.24 2.19 2.19 2.14 2.09 2.09 2.04 2.04 1.99 1.99 1.94 1.94 1.92 1.95 1.92 1.94 2.04 2.14 2.16 2.26 2.36 2.46 2.56 2.66 2.81 2.96 3.16 3.36 3.51 3.76 4.06 4.41 4.81 5.26 5.76 6.21 7.16 8.31 9.91 12.11 18.76 21.71 24.61 30.31 30.31 30.36 16.41 12.71 10.11 8.91 7.31 6.36 5.71 5.16 4.66 4.36 4.36 4.71 4.71 4.76 4.81 2.86 2.66 2.56 2.46 2.31 2.21 2.16 2.06 2.01 1.91 1.84 1.84 1.89 1.89 1.94 1.94 1.99 1.99 2.04 2.04 2.04 2.09 2.09 2.14 2.24 2.24 2.24 2.29 2.34 2.44 2.44 2.46 2.41 2.31 2.31 2.36 2.36 2.46 2.41 2.51 2.56 3.11 3.31 6.91 4.61 50.00 50.00 6.16 6.11 6.06 6.06 5.96 5.91 6.01 5.86 5.81 5.81 5.76 5.76 5.71 5.71 5.61 3.26 5.56 5.56 5.51 5.51 5.56 3.01 6.46 6.36 4.41 6.36 -0.000602 0.012727 -1.570796 -0.000602 0.012727 -1.570796 70.410399 nohost 0.230700
ODOM -0.000602 0.012727 -1.570796 0.000000 0.000000 0.000000 70.429500 nohost 0.249801
FLASER 180 46.56 47.31 12.51 14.71 12.16 12.31 12.21 11.71 10.51 9.46 8.61 7.91 7.31 6.81 6.36 6.01 5.66 5.31 5.06 4.81 4.56 4.36 4.21 4.01 3.91 3.76 3.61 3.51 3.36 3.31 3.16 3.06 3.01 2.91 2.86 2.81 2.71 2.64 2.64 2.59 2.49 2.44 2.39 2.34 2.34 2.29 2.24 2.19 2.14 2.14 2.09 2.09 2.04 1.99 1.99 1.94 1.94 1.94 1.97 1.90 1.92 1.94 2.09 2.14 2.16 2.26 2.36 2.46 2.61 2.71 2.76 2.96 3.16 3.31 3.51 3.81 4.06 4.41 4.81 5.21 5.76 6.26 7.16 8.31 9.86 12.16 18.76 21.81 24.66 30.26 30.31 30.31 16.41 12.76 10.11 8.91 7.31 6.41 5.66 5.16 4.66 4.36 4.36 4.71 4.76 4.76 4.81 2.86 2.71 2.56 2.46 2.36 2.26 2.11 2.06 2.01 1.94 1.84 1.84 1.89 1.89 1.89 1.94 1.94 1.99 1.99 2.04 2.04 2.09 2.14 2.19 2.19 2.24 2.29 2.29 2.39 2.39 2.44 2.46 2.46 2.36 2.31 2.31 2.36 2.41 2.41 2.46 2.56 3.16 3.31 6.91 4.61 50.00 50.00 6.16 6.11 6.06 6.01 5.96 5.91 6.01 5.86 5.81 5.81 5.76 5.71 5.71 5.71 5.61 3.31 5.56 5.56 5.51 5.51 5.56 2.96 6.41 6.36 4.46 6.36 -0.000602 0.012727 -1.570796 -0.000602 0.012727 -1.570796 70.521299 nohost 0.341600
ODOM -0.000602 0.012727 -1.570796 0.000000 0.000000 0.000000 70.559700 nohost 0.380001
FLASER 180 46.51 47.31 12.61 14.71 12.11 12.26 12.21 11.76 10.51 9.41 8.61 7.86 7.31 6.81 6.36 6.01 5.61 5.36 5.06 4.81 4.61 4.36 4.21 4.06 3.86 3.76 3.61 3.51 3.41 3.26 3.21 3.11 3.01 2.91 2.81 2.81 2.71 2.64 2.64 2.54 2.49 2.49 2.39 2.34 2.34 2.29 2.24 2.19 2.14 2.14 2.09 2.04 2.04 2.04 1.99 1.99 1.94 1.94 1.97 1.95 1.87 1.99 2.04 2.09 2.16 2.31 2.36 2.46 2.56 2.71 2.81 3.01 3.11 3.36 3.56 3.81 4.11 4.36 4.81 5.26 5.76 6.21 7.16 8.36 9.91 12.11 18.76 21.76 24.61 30.31 30.31 30.31 16.41 12.71 10.11 8.91 7.31 6.36 5.66 5.16 4.66 4.41 4.36 4.71 4.71 4.76 4.76 2.86 2.71 2.56 2.41 2.36 2.26 2.16 2.06 2.01 1.89 1.84 1.89 1.89 1.89 1.89 1.94 1.99 1.99 1.99 2.04 2.04 2.09 2.14 2.14 2.19 2.24 2.29 2.29 2.34 2.34 2.39 2.46 2.41 2.31 2.31 2.31 2.36 2.41 2.41 2.51 2.56 3.11 3.26 6.96 4.61 50.00 50.00 6.21 6.16 6.11 6.01 6.01 5.91 5.96 5.86 5.81 5.81 5.76 5.76 5.71 5.71 5.56 3.31 5.56 5.56 5.51 5.56 5.51 2.96 6.46 6.36 4.46 6.31 -0.000602 0.012727 -1.570796 -0.000602 0.012727 -1.570796 70.639600 nohost 0.459901
ODOM -0.000602 0.012727 -1.570796 0.000000 0.000000 0.000000 70.709699 nohost 0.530000
FLASER 180 46.51 47.31 12.51 14.71 12.16 12.26 12.16 11.71 10.51 9.46 8.61 7.91 7.31 6.81 6.36 6.01 5.66 5.36 5.06 4.86 4.61 4.41 4.16 4.01 3.86 3.76 3.61 3.51 3.36 3.31 3.16 3.06 3.01 2.91 2.86 2.81 2.66 2.69 2.59 2.59 2.49 2.44 2.34 2.34 2.34 2.29 2.24 2.19 2.14 2.14 2.09 2.04 2.04 1.99 1.99 1.99 1.94 1.94 1.97 1.92 1.87 1.99 2.04 2.11 2.21 2.26 2.36 2.46 2.56 2.66 2.86 2.96 3.16 3.36 3.56 3.81 4.11 4.46 4.76 5.26 5.76 6.26 7.21 8.31 9.91 12.11 18.81 21.76 24.61 30.31 30.31 30.31 16.41 12.71 10.11 8.91 7.36 6.41 5.66 5.16 4.66 4.41 4.41 4.71 4.76 4.76 4.76 2.86 2.71 2.56 2.46 2.31 2.26 2.11 2.01 1.96 1.94 1.84 1.84 1.89 1.89 1.94 1.94 1.94 1.94 2.04 2.04 2.09 2.09 2.14 2.14 2.19 2.24 2.29 2.29 2.34 2.39 2.44 2.51 2.41 2.36 2.31 2.36 2.36 2.36 2.46 2.51 2.56 3.11 3.26 6.96 4.56 50.00 50.00 6.21 6.11 6.06 6.01 6.01 5.91 6.01 5.86 5.81 5.81 5.76 5.76 5.71 5.71 5.56 3.31 5.51 5.56 5.51 5.56 5.51 2.96 6.46 6.36 4.46 6.36 -0.000602 0.012727 -1.570796 -0.000602 0.012727 -1.570796 70.839600 nohost 0.659901
ODOM -0.000602 0.012727 -1.570796 0.000000 0.000000 0.000000 70.841200 nohost 0.661501
FLASER 180 46.51 47.21 12.56 14.71 12.16 12.26 12.21 11.76 10.51 9.46 8.61 7.91 7.36 6.81 6.31 6.01 5.66 5.31 5.06 4.81 4.56 4.36 4.21 4.06 3.91 3.76 3.61 3.51 3.41 3.26 3.16 3.06 3.01 2.96 2.81 2.76 2.69 2.64 2.64 2.59 2.49 2.49 2.39 2.39 2.34 2.29 2.24 2.24 2.14 2.09 2.09 2.09 2.04 2.04 1.99 1.99 1.94 1.89 1.92 1.90 1.87 1.99 2.04 2.14 2.21 2.26 2.36 2.46 2.56 2.66 2.86 3.01 3.16 3.31 3.56 3.81 4.11 4.41 4.76 5.21 5.76 6.21 7.26 8.36 9.91 12.16 18.81 21.76 24.66 30.31 30.26 30.36 16.41 12.71 10.16 8.96 7.26 6.41 5.66 5.16 4.66 4.41 4.36 4.76 4.76 4.76 4.81 2.86 2.66 2.61 2.46 2.36 2.26 2.16 2.06 1.96 1.86 1.84 1.84 1.89 1.89 1.89 1.94 1.94 1.99 2.04 2.04 2.09 2.09 2.14 2.14 2.19 2.24 2.24 2.29 2.39 2.39 2.46 2.51 2.46 2.31 2.26 2.36 2.36 2.41 2.46 2.51 2.61 3.16 3.31 6.96 4.61 50.00 50.00 6.21 6.16 6.06 6.01 5.96 5.91 6.01 5.91 5.86 5.81 5.76 5.71 5.71 5.71 5.56 3.31 5.56 5.51 5.51 5.51 5.51 2.96 6.46 6.36 4.41 6.31 -0.000602 0.012727 -1.570796 -0.000602 0.012727 -1.570796 70.920000 nohost 0.740301
ODOM -0.000602 0.012727 -1.570796 0.000000 0.000000 0.000000 70.989800 nohost 0.810101
FLASER 180 46.61 47.26 12.56 14.76 12.16 12.26 12.16 11.76 10.51 9.46 8.66 7.91 7.31 6.81 6.36 6.01 5.66 5.36 5.06 4.81 4.56 4.41 4.16 4.01 3.91 3.76 3.56 3.46 3.41 3.26 3.16 3.06 3.01 2.91 2.86 2.76 2.71 2.69 2.59 2.54 2.54 2.44 2.39 2.39 2.34 2.29 2.29 2.24 2.14 2.14 2.09 2.04 2.04 2.04 1.99 1.94 1.94 1.90 1.92 1.90 1.92 1.94 2.04 2.09 2.16 2.31 2.36 2.46 2.56 2.71 2.86 3.01 3.11 3.31 3.56 3.86 4.06 4.41 4.81 5.26 5.76 6.21 7.21 8.36 9.91 12.16 18.76 21.76 24.66 30.31 30.26 30.31 16.36 12.76 10.11 8.91 7.31 6.41 5.66 5.16 4.66 4.36 4.41 4.71 4.76 4.76 4.76 2.81 2.71 2.56 2.46 2.31 2.21 2.16 2.06 2.01 1.91 1.84 1.84 1.89 1.89 1.94 1.94 1.99 1.99 2.04 2.04 2.04 2.14 2.14 2.14 2.19 2.24 2.29 2.34 2.34 2.39 2.44 2.51 2.41 2.31 2.31 2.36 2.41 2.41 2.41 2.46 2.56 3.11 3.31 6.96 4.66 50.00 50.00 6.16 6.11 6.06 6.01 5.96 5.91 6.01 5.86 5.86 5.81 5.81 5.76 5.71 5.71 5.61 3.31 5.56 5.51 5.51 5.51 5.51 2.91 6.46 6.36 4.41 6.36 -0.000602 0.012727 -1.570796 -0.000602 0.012727 -1.570796 71.079899 nohost 0.900200
ODOM -0.000602 0.012727 -1.570796 0.000000 0.000000 0.000000 71.169499 nohost 0.989800
FLASER 180 46.56 47.31 12.51 14.71 12.16 12.26 12.21 11.76 10.51 9.46 8.61 7.91 7.26 6.81 6.36 6.01 5.66 5.36 5.06 4.81 4.61 4.36 4.16 4.01 3.86 3.76 3.61 3.51 3.36 3.26 3.16 3.06 2.96 2.86 2.81 2.76 2.71 2.64 2.64 2.59 2.49 2.44 2.44 2.39 2.34 2.29 2.24 2.19 2.19 2.14 2.09 2.09 2.04 1.99 1.99 1.99 1.94 1.94 1.92 1.90 1.92 1.99 2.09 2.09 2.11 2.26 2.36 2.46 2.56 2.71 2.81 2.96 3.16 3.31 3.51 3.81 4.06 4.41 4.81 5.26 5.76 6.26 7.21 8.36 9.91 12.11 18.76 21.76 24.61 30.31 30.31 30.36 16.41 12.71 10.11 8.86 7.31 6.41 5.66 5.16 4.66 4.36 4.41 4.71 4.71 4.76 4.81 2.86 2.71 2.56 2.41 2.31 2.21 2.11 2.06 2.01 1.91 1.84 1.89 1.89 1.89 1.89 1.94 1.94 1.99 2.04 2.04 2.09 2.09 2.09 2.19 2.19 2.24 2.24 2.29 2.34 2.44 2.44 2.51 2.46 2.31 2.31 2.36 2.36 2.46 2.41 2.51 2.56 3.16 3.31 6.91 4.56 50.00 50.00 6.21 6.16 6.11 6.01 5.96 5.91 6.01 5.86 5.81 5.81 5.76 5.71 5.71 5.71 5.56 3.31 5.56 5.51 5.56 5.51 5.56 2.91 6.51 6.36 4.46 6.36 -0.000602 0.012727 -1.570796 -0.000602 0.012727 -1.570796 71.240099 nohost 1.060400
ODOM -0.000602 0.012727 -1.570796 0.000000 0.000000 0.000000 71.289799 nohost 1.110100
